項次,測站代碼,測站中文名稱,縣市,鄉鎮,地址,經度_WGS84,緯度_WGS84,海拔_橢球高_m,測站資料起始時間
1,12J990,口湖工作站,雲林縣,口湖鄉,口湖村成功路180號,120.1804,23.589978,10,2018/12/5
2,12Q970,東港工作站,屏東縣,東港鎮,興東里興東路65-18號,120.4661,22.479997,16,2018/12/5
3,12Q980,恆春工作站,屏東縣,車城鄉,田中村中山路166號,120.7144,22.079678,16,2018/11/26
4,42HA10,萬大發電廠,南投縣,仁愛鄉,親愛村大安路1號,121.1396,23.978875,1000,2018/11/16
5,72AI40,桃改樹林分場,新北市,樹林區,新北市樹林區佳園路三段253號,121.387,24.944503,40,2019/12/12
